{
  "1001": {
    "name": "SK Flensburg",
    "state": "Schleswig-Holstein",
    "lat": 54.78047,
    "lon": 9.43522
  },
  "1002": {
    "name": "SK Kiel",
    "state": "Schleswig-Holstein",
    "lat": 54.3226835847914,
    "lon": 10.1358584821225
  },
  "1003": {
    "name": "SK Lübeck",
    "state": "Schleswig-Holstein",
    "lat": 53.86956,
    "lon": 10.68758
  },
  "1004": {
    "name": "SK Neumünster",
    "state": "Schleswig-Holstein",
    "lat": 54.07404,
    "lon": 9.98453
  },
  "1051": {
    "name": "LK Dithmarschen",
    "state": "Schleswig-Holstein",
    "lat": 54.147436752136755,
    "lon": 9.111395811965812
  },
  "1053": {
    "name": "LK Herzogtum Lauenburg",
    "state": "Schleswig-Holstein",
    "lat": 53.60132651515151,
    "lon": 10.586605303030304
  },
  "1054": {
    "name": "LK Nordfriesland",
    "state": "Schleswig-Holstein",
    "lat": 54.635423,
    "lon": 8.724075
  },
  "1055": {
    "name": "LK Ostholstein",
    "state": "Schleswig-Holstein",
    "lat": 54.17666285714286,
    "lon": 10.84762
  },
  "1056": {
    "name": "LK Pinneberg",
    "state": "Schleswig-Holstein",
    "lat": 53.72789387755102,
    "lon": 9.697959795918367
  },
  "1057": {
    "name": "LK Plön",
    "state": "Schleswig-Holstein",
    "lat": 54.1591308763995,
    "lon": 10.4112556338311
  },
  "1058": {
    "name": "LK Rendsburg-Eckernförde",
    "state": "Schleswig-Holstein",
    "lat": 54.27911626506024,
    "lon": 9.788656024096385
  },
  "1059": {
    "name": "LK Schleswig-Flensburg",
    "state": "Schleswig-Holstein",
    "lat": 54.63109701492537,
    "lon": 9.555970074626865
  },
  "1060": {
    "name": "LK Segeberg",
    "state": "Schleswig-Holstein",
    "lat": 53.92322872340426,
    "lon": 10.161231170212766
  },
  "1061": {
    "name": "LK Steinburg",
    "state": "Schleswig-Holstein",
    "lat": 53.940934210526315,
    "lon": 9.515789561403508
  },
  "1062": {
    "name": "LK Stormarn",
    "state": "Schleswig-Holstein",
    "lat": 53.721512727272724,
    "lon": 10.358614545454545
  },
  "2000": {
    "name": "SK Hamburg",
    "state": "Hamburg",
    "lat": 53.554423,
    "lon": 9.994583
  },
  "3101": {
    "name": "SK Braunschweig",
    "state": "Niedersachsen",
    "lat": 52.26901,
    "lon": 10.52597
  },
  "3102": {
    "name": "SK Salzgitter",
    "state": "Niedersachsen",
    "lat": 52.14965,
    "lon": 10.33671
  },
  "3103": {
    "name": "SK Wolfsburg",
    "state": "Niedersachsen",
    "lat": 52.43788,
    "lon": 10.7663700000001
  },
  "3151": {
    "name": "LK Gifhorn",
    "state": "Niedersachsen",
    "lat": 52.52641951219512,
    "lon": 10.608129268292682
  },
  "3152": {
    "name": "LK Göttingen (alt)",
    "state": "Niedersachsen",
    "lat": 51.5369166,
    "lon": 9.8568135
  },
  "3153": {
    "name": "LK Goslar",
    "state": "Niedersachsen",
    "lat": 51.90839,
    "lon": 10.44638
  },
  "3154": {
    "name": "LK Helmstedt",
    "state": "Niedersachsen",
    "lat": 52.239096153846155,
    "lon": 10.918596153846154
  },
  "3155": {
    "name": "LK Northeim",
    "state": "Niedersachsen",
    "lat": 51.734725,
    "lon": 9.8777725
  },
  "3157": {
    "name": "LK Peine",
    "state": "Niedersachsen",
    "lat": 52.32032,
    "lon": 10.24337
  },
  "3158": {
    "name": "LK Wolfenbüttel",
    "state": "Niedersachsen",
    "lat": 52.16423,
    "lon": 10.5403200000001
  },
  "3159": {
    "name": "LK Göttingen",
    "state": "Niedersachsen",
    "lat": 51.531610344827584,
    "lon": 10.014374137931034
  },
  "3241": {
    "name": "Region Hannover",
    "state": "Niedersachsen",
    "lat": 52.3844936156149,
    "lon": 9.72700752380365
  },
  "3251": {
    "name": "LK Diepholz",
    "state": "Niedersachsen",
    "lat": 52.68865744680851,
    "lon": 8.694680638297873
  },
  "3252": {
    "name": "LK Hameln-Pyrmont",
    "state": "Niedersachsen",
    "lat": 52.0895875,
    "lon": 9.3875
  },
  "3254": {
    "name": "LK Hildesheim",
    "state": "Niedersachsen",
    "lat": 52.06208,
    "lon": 9.89374925
  },
  "3255": {
    "name": "LK Holzminden",
    "state": "Niedersachsen",
    "lat": 51.890109375,
    "lon": 9.5421871875
  },
  "3256": {
    "name": "LK Nienburg (Weser)",
    "state": "Niedersachsen",
    "lat": 52.611847297297295,
    "lon": 9.155330135135134
  },
  "3257": {
    "name": "LK Schaumburg",
    "state": "Niedersachsen",
    "lat": 52.2939525,
    "lon": 9.2145336875
  },
  "3351": {
    "name": "LK Celle",
    "state": "Niedersachsen",
    "lat": 52.61689,
    "lon": 10.06343
  },
  "3352": {
    "name": "LK Cuxhaven",
    "state": "Niedersachsen",
    "lat": 53.61178103448276,
    "lon": 8.827873620689655
  },
  "3353": {
    "name": "LK Harburg",
    "state": "Niedersachsen",
    "lat": 53.3085,
    "lon": 9.971780930232558
  },
  "3354": {
    "name": "LK Lüchow-Dannenberg",
    "state": "Niedersachsen",
    "lat": 53.02447168141593,
    "lon": 11.034896460176991
  },
  "3355": {
    "name": "LK Lüneburg",
    "state": "Niedersachsen",
    "lat": 53.24480888888889,
    "lon": 10.467411111111112
  },
  "3356": {
    "name": "LK Osterholz",
    "state": "Niedersachsen",
    "lat": 53.26210909090909,
    "lon": 8.830302727272727
  },
  "3357": {
    "name": "LK Rotenburg (Wümme)",
    "state": "Niedersachsen",
    "lat": 53.252631578947366,
    "lon": 9.31257298245614
  },
  "3358": {
    "name": "LK Heidekreis",
    "state": "Niedersachsen",
    "lat": 52.82174347826087,
    "lon": 9.660142608695653
  },
  "3359": {
    "name": "LK Stade",
    "state": "Niedersachsen",
    "lat": 53.59925,
    "lon": 9.47278
  },
  "3360": {
    "name": "LK Uelzen",
    "state": "Niedersachsen",
    "lat": 52.9982724137931,
    "lon": 10.576441379310344
  },
  "3361": {
    "name": "LK Verden",
    "state": "Niedersachsen",
    "lat": 52.9670368568939,
    "lon": 9.11171248148594
  },
  "3401": {
    "name": "SK Delmenhorst",
    "state": "Niedersachsen",
    "lat": 53.05246,
    "lon": 8.63308000000006
  },
  "3402": {
    "name": "SK Emden",
    "state": "Niedersachsen",
    "lat": 53.36034,
    "lon": 7.20492000000002
  },
  "3403": {
    "name": "SK Oldenburg",
    "state": "Niedersachsen",
    "lat": 53.15013,
    "lon": 8.20983000000001
  },
  "3404": {
    "name": "SK Osnabrück",
    "state": "Niedersachsen",
    "lat": 52.28183,
    "lon": 8.04372000000001
  },
  "3405": {
    "name": "SK Wilhelmshaven",
    "state": "Niedersachsen",
    "lat": 53.53115,
    "lon": 8.10589000000004
  },
  "3451": {
    "name": "LK Ammerland",
    "state": "Niedersachsen",
    "lat": 53.21836,
    "lon": 8.00072
  },
  "3452": {
    "name": "LK Aurich",
    "state": "Niedersachsen",
    "lat": 53.4764408018047,
    "lon": 7.48422814941409
  },
  "3453": {
    "name": "LK Cloppenburg",
    "state": "Niedersachsen",
    "lat": 52.89359230769231,
    "lon": 7.908974615384615
  },
  "3454": {
    "name": "LK Emsland",
    "state": "Niedersachsen",
    "lat": 52.759037288135595,
    "lon": 7.456497457627119
  },
  "3455": {
    "name": "LK Friesland",
    "state": "Niedersachsen",
    "lat": 53.458042167945,
    "lon": 8.0242825290934
  },
  "3456": {
    "name": "LK Grafschaft Bentheim",
    "state": "Niedersachsen",
    "lat": 52.46474615384616,
    "lon": 7.010256153846154
  },
  "3457": {
    "name": "LK Leer",
    "state": "Niedersachsen",
    "lat": 53.25020869565218,
    "lon": 7.456303478260869
  },
  "3458": {
    "name": "LK Oldenburg",
    "state": "Niedersachsen",
    "lat": 52.9479395546104,
    "lon": 8.49219694712315
  },
  "3459": {
    "name": "LK Osnabrück",
    "state": "Niedersachsen",
    "lat": 52.391664705882356,
    "lon": 7.995587647058824
  },
  "3460": {
    "name": "LK Vechta",
    "state": "Niedersachsen",
    "lat": 52.66451,
    "lon": 8.22797000000003
  },
  "3461": {
    "name": "LK Wesermarsch",
    "state": "Niedersachsen",
    "lat": 53.336711111111114,
    "lon": 8.431665555555556
  },
  "3462": {
    "name": "LK Wittmund",
    "state": "Niedersachsen",
    "lat": 53.57762,
    "lon": 7.77405999999996
  },
  "4011": {
    "name": "SK Bremen",
    "state": "Bremen",
    "lat": 53.08519,
    "lon": 8.81987000000004
  },
  "4012": {
    "name": "SK Bremerhaven",
    "state": "Bremen",
    "lat": 53.55017,
    "lon": 8.58236999999997
  },
  "5111": {
    "name": "SK Düsseldorf",
    "state": "Nordrhein-Westfalen",
    "lat": 51.2205154180975,
    "lon": 6.81219154365544
  },
  "5112": {
    "name": "SK Duisburg",
    "state": "Nordrhein-Westfalen",
    "lat": 51.43511,
    "lon": 6.76296000000002
  },
  "5113": {
    "name": "SK Essen",
    "state": "Nordrhein-Westfalen",
    "lat": 51.4624078678369,
    "lon": 7.00868774597166
  },
  "5114": {
    "name": "SK Krefeld",
    "state": "Nordrhein-Westfalen",
    "lat": 51.33891,
    "lon": 6.58528999999999
  },
  "5116": {
    "name": "SK Mönchengladbach",
    "state": "Nordrhein-Westfalen",
    "lat": 51.18012,
    "lon": 6.44234000000006
  },
  "5117": {
    "name": "SK Mülheim a.d.Ruhr",
    "state": "Nordrhein-Westfalen",
    "lat": 51.4312,
    "lon": 6.88050999999996
  },
  "5119": {
    "name": "SK Oberhausen",
    "state": "Nordrhein-Westfalen",
    "lat": 51.4966095438784,
    "lon": 6.85144426452644
  },
  "5120": {
    "name": "SK Remscheid",
    "state": "Nordrhein-Westfalen",
    "lat": 51.1833,
    "lon": 7.2
  },
  "5122": {
    "name": "SK Solingen",
    "state": "Nordrhein-Westfalen",
    "lat": 51.17038,
    "lon": 7.05448000000001
  },
  "5124": {
    "name": "SK Wuppertal",
    "state": "Nordrhein-Westfalen",
    "lat": 51.2613292932292,
    "lon": 7.16298812683112
  },
  "5154": {
    "name": "LK Kleve",
    "state": "Nordrhein-Westfalen",
    "lat": 51.62708125,
    "lon": 6.273438125
  },
  "5158": {
    "name": "LK Mettmann",
    "state": "Nordrhein-Westfalen",
    "lat": 51.25097,
    "lon": 6.97401000000002
  },
  "5162": {
    "name": "LK Rhein-Kreis Neuss",
    "state": "Nordrhein-Westfalen",
    "lat": 51.1520625,
    "lon": 6.63541625
  },
  "5166": {
    "name": "LK Viersen",
    "state": "Nordrhein-Westfalen",
    "lat": 51.25552,
    "lon": 6.39652999999998
  },
  "5170": {
    "name": "LK Wesel",
    "state": "Nordrhein-Westfalen",
    "lat": 51.593592307692305,
    "lon": 6.610256153846154
  },
  "5314": {
    "name": "SK Bonn",
    "state": "Nordrhein-Westfalen",
    "lat": 50.7333,
    "lon": 7.1
  },
  "5315": {
    "name": "SK Köln",
    "state": "Nordrhein-Westfalen",
    "lat": 50.9333,
    "lon": 6.95
  },
  "5316": {
    "name": "SK Leverkusen",
    "state": "Nordrhein-Westfalen",
    "lat": 51.05,
    "lon": 7.01667
  },
  "5334": {
    "name": "StadtRegion Aachen",
    "state": "Nordrhein-Westfalen",
    "lat": 50.7667,
    "lon": 6.1
  },
  "5358": {
    "name": "LK Düren",
    "state": "Nordrhein-Westfalen",
    "lat": 50.82332666666667,
    "lon": 6.44
  },
  "5362": {
    "name": "LK Rhein-Erft-Kreis",
    "state": "Nordrhein-Westfalen",
    "lat": 50.90334,
    "lon": 6.763334
  },
  "5366": {
    "name": "LK Euskirchen",
    "state": "Nordrhein-Westfalen",
    "lat": 50.5606,
    "lon": 6.633332727272728
  },
  "5370": {
    "name": "LK Heinsberg",
    "state": "Nordrhein-Westfalen",
    "lat": 51.04167,
    "lon": 6.116668
  },
  "5374": {
    "name": "LK Oberbergischer Kreis",
    "state": "Nordrhein-Westfalen",
    "lat": 51.01281538461539,
    "lon": 7.517948461538461
  },
  "5378": {
    "name": "LK Rheinisch-Bergischer Kreis",
    "state": "Nordrhein-Westfalen",
    "lat": 51.0354125,
    "lon": 7.170835
  },
  "5382": {
    "name": "LK Rhein-Sieg-Kreis",
    "state": "Nordrhein-Westfalen",
    "lat": 50.7595052631579,
    "lon": 7.196455263157895
  },
  "5512": {
    "name": "SK Bottrop",
    "state": "Nordrhein-Westfalen",
    "lat": 51.52904,
    "lon": 6.94335000000001
  },
  "5513": {
    "name": "SK Gelsenkirchen",
    "state": "Nordrhein-Westfalen",
    "lat": 51.5175,
    "lon": 7.08574999999996
  },
  "5515": {
    "name": "SK Münster",
    "state": "Nordrhein-Westfalen",
    "lat": 51.95174,
    "lon": 7.62523999999996
  },
  "5554": {
    "name": "LK Borken",
    "state": "Nordrhein-Westfalen",
    "lat": 51.946070588235294,
    "lon": 6.914705294117647
  },
  "5558": {
    "name": "LK Coesfeld",
    "state": "Nordrhein-Westfalen",
    "lat": 51.86362727272727,
    "lon": 7.384849090909091
  },
  "5562": {
    "name": "LK Recklinghausen",
    "state": "Nordrhein-Westfalen",
    "lat": 51.59323,
    "lon": 7.20794999999998
  },
  "5566": {
    "name": "LK Steinfurt",
    "state": "Nordrhein-Westfalen",
    "lat": 52.14781,
    "lon": 7.34357
  },
  "5570": {
    "name": "LK Warendorf",
    "state": "Nordrhein-Westfalen",
    "lat": 51.87563076923077,
    "lon": 7.967947692307693
  },
  "5711": {
    "name": "SK Bielefeld",
    "state": "Nordrhein-Westfalen",
    "lat": 52.0214711400838,
    "lon": 8.54570125396731
  },
  "5754": {
    "name": "LK Gütersloh",
    "state": "Nordrhein-Westfalen",
    "lat": 51.94230769230769,
    "lon": 8.358975384615384
  },
  "5758": {
    "name": "LK Herford",
    "state": "Nordrhein-Westfalen",
    "lat": 52.11783,
    "lon": 8.679579
  },
  "5762": {
    "name": "LK Höxter",
    "state": "Nordrhein-Westfalen",
    "lat": 51.7775740915717,
    "lon": 9.37712896574408
  },
  "5766": {
    "name": "LK Lippe",
    "state": "Nordrhein-Westfalen",
    "lat": 51.9765864816298,
    "lon": 8.98649841308588
  },
  "5770": {
    "name": "LK Minden-Lübbecke",
    "state": "Nordrhein-Westfalen",
    "lat": 52.3212,
    "lon": 8.712122727272728
  },
  "5774": {
    "name": "LK Paderborn",
    "state": "Nordrhein-Westfalen",
    "lat": 51.71912,
    "lon": 8.75745000000006
  },
  "5911": {
    "name": "SK Bochum",
    "state": "Nordrhein-Westfalen",
    "lat": 51.46785,
    "lon": 7.19654000000003
  },
  "5913": {
    "name": "SK Dortmund",
    "state": "Nordrhein-Westfalen",
    "lat": 51.5042534718111,
    "lon": 7.4836885452271
  },
  "5914": {
    "name": "SK Hagen",
    "state": "Nordrhein-Westfalen",
    "lat": 51.3671508793155,
    "lon": 7.46336551849367
  },
  "5915": {
    "name": "SK Hamm",
    "state": "Nordrhein-Westfalen",
    "lat": 51.67352,
    "lon": 7.81599000000006
  },
  "5916": {
    "name": "SK Herne",
    "state": "Nordrhein-Westfalen",
    "lat": 51.53717,
    "lon": 7.20108000000005
  },
  "5954": {
    "name": "LK Ennepe-Ruhr-Kreis",
    "state": "Nordrhein-Westfalen",
    "lat": 51.34814444444444,
    "lon": 7.335184444444445
  },
  "5958": {
    "name": "LK Hochsauerlandkreis",
    "state": "Nordrhein-Westfalen",
    "lat": 51.2949075185892,
    "lon": 8.42272077514644
  },
  "5962": {
    "name": "LK Märkischer Kreis",
    "state": "Nordrhein-Westfalen",
    "lat": 51.2686681334246,
    "lon": 7.69294650789391
  },
  "5966": {
    "name": "LK Olpe",
    "state": "Nordrhein-Westfalen",
    "lat": 51.07382857142857,
    "lon": 7.930954285714286
  },
  "5970": {
    "name": "LK Siegen-Wittgenstein",
    "state": "Nordrhein-Westfalen",
    "lat": 50.9938,
    "lon": 8.31873606060606
  },
  "5974": {
    "name": "LK Soest",
    "state": "Nordrhein-Westfalen",
    "lat": 51.56698,
    "lon": 8.11062000000004
  },
  "5978": {
    "name": "LK Unna",
    "state": "Nordrhein-Westfalen",
    "lat": 51.54257,
    "lon": 7.68533000000002
  },
  "6411": {
    "name": "SK Darmstadt",
    "state": "Hessen",
    "lat": 49.8706,
    "lon": 8.64944
  },
  "6412": {
    "name": "SK Frankfurt am Main",
    "state": "Hessen",
    "lat": 50.1167,
    "lon": 8.68333
  },
  "6413": {
    "name": "SK Offenbach",
    "state": "Hessen",
    "lat": 50.1,
    "lon": 8.76667
  },
  "6414": {
    "name": "SK Wiesbaden",
    "state": "Hessen",
    "lat": 50.0833,
    "lon": 8.25
  },
  "6431": {
    "name": "LK Bergstraße",
    "state": "Hessen",
    "lat": 49.61605,
    "lon": 8.676556818181819
  },
  "6432": {
    "name": "LK Darmstadt-Dieburg",
    "state": "Hessen",
    "lat": 49.853391304347824,
    "lon": 8.76733043478261
  },
  "6433": {
    "name": "LK Groß-Gerau",
    "state": "Hessen",
    "lat": 49.92572857142857,
    "lon": 8.46607
  },
  "6434": {
    "name": "LK Hochtaunuskreis",
    "state": "Hessen",
    "lat": 50.24313125,
    "lon": 8.509269375
  },
  "6435": {
    "name": "LK Main-Kinzig-Kreis",
    "state": "Hessen",
    "lat": 50.21197931034483,
    "lon": 9.152155172413794
  },
  "6436": {
    "name": "LK Main-Taunus-Kreis",
    "state": "Hessen",
    "lat": 50.09999166666667,
    "lon": 8.4708325
  },
  "6437": {
    "name": "LK Odenwaldkreis",
    "state": "Hessen",
    "lat": 49.684106666666665,
    "lon": 8.973222
  },
  "6438": {
    "name": "LK Offenbach",
    "state": "Hessen",
    "lat": 50.03523846153846,
    "lon": 8.817413846153846
  },
  "6439": {
    "name": "LK Rheingau-Taunus-Kreis",
    "state": "Hessen",
    "lat": 50.11752941176471,
    "lon": 8.091384117647058
  },
  "6440": {
    "name": "LK Wetteraukreis",
    "state": "Hessen",
    "lat": 50.344664,
    "lon": 8.8920004
  },
  "6531": {
    "name": "LK Gießen",
    "state": "Hessen",
    "lat": 50.582411111111114,
    "lon": 8.761110555555556
  },
  "6532": {
    "name": "LK Lahn-Dill-Kreis",
    "state": "Hessen",
    "lat": 50.6581,
    "lon": 8.379799
  },
  "6533": {
    "name": "LK Limburg-Weilburg",
    "state": "Hessen",
    "lat": 50.43732631578948,
    "lon": 8.16953947368421
  },
  "6534": {
    "name": "LK Marburg-Biedenkopf",
    "state": "Hessen",
    "lat": 50.829654545454545,
    "lon": 8.726082727272727
  },
  "6535": {
    "name": "LK Vogelsbergkreis",
    "state": "Hessen",
    "lat": 50.641226315789474,
    "lon": 9.258772105263159
  },
  "6611": {
    "name": "SK Kassel",
    "state": "Hessen",
    "lat": 51.316944,
    "lon": 9.4925
  },
  "6631": {
    "name": "LK Fulda",
    "state": "Hessen",
    "lat": 50.5587,
    "lon": 9.758697
  },
  "6632": {
    "name": "LK Hersfeld-Rotenburg",
    "state": "Hessen",
    "lat": 50.893335,
    "lon": 9.7766675
  },
  "6633": {
    "name": "LK Kassel",
    "state": "Hessen",
    "lat": 51.316944,
    "lon": 9.4925
  },
  "6634": {
    "name": "LK Schwalm-Eder-Kreis",
    "state": "Hessen",
    "lat": 51.03108888888889,
    "lon": 9.36878851851852
  },
  "6635": {
    "name": "LK Waldeck-Frankenberg",
    "state": "Hessen",
    "lat": 51.1438,
    "lon": 8.841590384615385
  },
  "6636": {
    "name": "LK Werra-Meißner-Kreis",
    "state": "Hessen",
    "lat": 51.1916625,
    "lon": 9.971886875
  },
  "7111": {
    "name": "SK Koblenz",
    "state": "Rheinland-Pfalz",
    "lat": 50.35,
    "lon": 7.6
  },
  "7131": {
    "name": "LK Ahrweiler",
    "state": "Rheinland-Pfalz",
    "lat": 50.43652739726027,
    "lon": 7.005022739726027
  },
  "7132": {
    "name": "LK Altenkirchen",
    "state": "Rheinland-Pfalz",
    "lat": 50.71274537815126,
    "lon": 7.682772941176471
  },
  "7133": {
    "name": "LK Bad Kreuznach",
    "state": "Rheinland-Pfalz",
    "lat": 49.82111596638656,
    "lon": 7.690912016806723
  },
  "7134": {
    "name": "LK Birkenfeld",
    "state": "Rheinland-Pfalz",
    "lat": 49.721178125,
    "lon": 7.2720484375
  },
  "7135": {
    "name": "LK Cochem-Zell",
    "state": "Rheinland-Pfalz",
    "lat": 50.14102307692308,
    "lon": 7.189468351648352
  },
  "7137": {
    "name": "LK Mayen-Koblenz",
    "state": "Rheinland-Pfalz",
    "lat": 50.326436781609196,
    "lon": 7.322222873563218
  },
  "7138": {
    "name": "LK Neuwied",
    "state": "Rheinland-Pfalz",
    "lat": 50.561240322580645,
    "lon": 7.481675806451613
  },
  "7140": {
    "name": "LK Rhein-Hunsrück-Kreis",
    "state": "Rheinland-Pfalz",
    "lat": 50.02151641791045,
    "lon": 7.489054701492537
  },
  "7141": {
    "name": "LK Rhein-Lahn-Kreis",
    "state": "Rheinland-Pfalz",
    "lat": 50.26508540145986,
    "lon": 7.8557858394160585
  },
  "7143": {
    "name": "LK Westerwaldkreis",
    "state": "Rheinland-Pfalz",
    "lat": 50.55689371727749,
    "lon": 7.86570664921466
  },
  "7211": {
    "name": "SK Trier",
    "state": "Rheinland-Pfalz",
    "lat": 49.75,
    "lon": 6.63333
  },
  "7231": {
    "name": "LK Bernkastel-Wittlich",
    "state": "Rheinland-Pfalz",
    "lat": 49.92947314814815,
    "lon": 6.938426296296297
  },
  "7232": {
    "name": "LK Bitburg-Prüm",
    "state": "Rheinland-Pfalz",
    "lat": 50.03753771186441,
    "lon": 6.397652711864406
  },
  "7233": {
    "name": "LK Vulkaneifel",
    "state": "Rheinland-Pfalz",
    "lat": 50.243880733944955,
    "lon": 6.803058165137615
  },
  "7235": {
    "name": "LK Trier-Saarburg",
    "state": "Rheinland-Pfalz",
    "lat": 49.70065145631068,
    "lon": 6.704530194174757
  },
  "7311": {
    "name": "SK Frankenthal",
    "state": "Rheinland-Pfalz",
    "lat": 49.5372,
    "lon": 8.355
  },
  "7312": {
    "name": "SK Kaiserslautern",
    "state": "Rheinland-Pfalz",
    "lat": 49.45,
    "lon": 7.75
  },
  "7313": {
    "name": "SK Landau i.d.Pfalz",
    "state": "Rheinland-Pfalz",
    "lat": 49.2075,
    "lon": 8.11333
  },
  "7314": {
    "name": "SK Ludwigshafen",
    "state": "Rheinland-Pfalz",
    "lat": 49.4811,
    "lon": 8.43528
  },
  "7315": {
    "name": "SK Mainz",
    "state": "Rheinland-Pfalz",
    "lat": 50,
    "lon": 8.27111
  },
  "7316": {
    "name": "SK Neustadt a.d.Weinstraße",
    "state": "Rheinland-Pfalz",
    "lat": 49.3567,
    "lon": 8.13778
  },
  "7317": {
    "name": "SK Pirmasens",
    "state": "Rheinland-Pfalz",
    "lat": 49.2,
    "lon": 7.6
  },
  "7318": {
    "name": "SK Speyer",
    "state": "Rheinland-Pfalz",
    "lat": 49.3297,
    "lon": 8.42778
  },
  "7319": {
    "name": "SK Worms",
    "state": "Rheinland-Pfalz",
    "lat": 49.6356,
    "lon": 8.35972
  },
  "7320": {
    "name": "SK Zweibrücken",
    "state": "Rheinland-Pfalz",
    "lat": 49.25,
    "lon": 7.36667
  },
  "7331": {
    "name": "LK Alzey-Worms",
    "state": "Rheinland-Pfalz",
    "lat": 49.75430579710145,
    "lon": 8.142210289855072
  },
  "7332": {
    "name": "LK Bad Dürkheim",
    "state": "Rheinland-Pfalz",
    "lat": 49.4910125,
    "lon": 8.15603
  },
  "7333": {
    "name": "LK Donnersbergkreis",
    "state": "Rheinland-Pfalz",
    "lat": 49.63928295454546,
    "lon": 7.910429204545454
  },
  "7334": {
    "name": "LK Germersheim",
    "state": "Rheinland-Pfalz",
    "lat": 49.13871935483871,
    "lon": 8.245913225806452
  },
  "7335": {
    "name": "LK Kaiserslautern",
    "state": "Rheinland-Pfalz",
    "lat": 49.453336,
    "lon": 7.6606664
  },
  "7336": {
    "name": "LK Kusel",
    "state": "Rheinland-Pfalz",
    "lat": 49.556698969072166,
    "lon": 7.477835154639175
  },
  "7337": {
    "name": "LK Südliche Weinstraße",
    "state": "Rheinland-Pfalz",
    "lat": 49.185054666666666,
    "lon": 8.063059333333333
  },
  "7338": {
    "name": "LK Rhein-Pfalz-Kreis",
    "state": "Rheinland-Pfalz",
    "lat": 49.445628,
    "lon": 8.3440772
  },
  "7339": {
    "name": "LK Mainz-Bingen",
    "state": "Rheinland-Pfalz",
    "lat": 49.90333181818182,
    "lon": 8.108560606060607
  },
  "7340": {
    "name": "LK Südwestpfalz",
    "state": "Rheinland-Pfalz",
    "lat": 49.22261547619048,
    "lon": 7.619742023809524
  },
  "8111": {
    "name": "SK Stuttgart",
    "state": "Baden-Württemberg",
    "lat": 48.77173888888889,
    "lon": 9.183963518518519
  },
  "8115": {
    "name": "LK Böblingen",
    "state": "Baden-Württemberg",
    "lat": 48.6851,
    "lon": 9.00954
  },
  "8116": {
    "name": "LK Esslingen",
    "state": "Baden-Württemberg",
    "lat": 48.64697045454545,
    "lon": 9.371212954545454
  },
  "8117": {
    "name": "LK Göppingen",
    "state": "Baden-Württemberg",
    "lat": 48.6575825,
    "lon": 9.68285325
  },
  "8118": {
    "name": "LK Ludwigsburg",
    "state": "Baden-Württemberg",
    "lat": 48.942564102564106,
    "lon": 9.149587435897436
  },
  "8119": {
    "name": "LK Rems-Murr-Kreis",
    "state": "Baden-Württemberg",
    "lat": 48.8934,
    "lon": 9.467212903225807
  },
  "8121": {
    "name": "SK Heilbronn",
    "state": "Baden-Württemberg",
    "lat": 49.1403,
    "lon": 9.22
  },
  "8125": {
    "name": "LK Heilbronn",
    "state": "Baden-Württemberg",
    "lat": 49.16749130434783,
    "lon": 9.203116739130435
  },
  "8126": {
    "name": "LK Hohenlohekreis",
    "state": "Baden-Württemberg",
    "lat": 49.2725125,
    "lon": 9.605733125
  },
  "8127": {
    "name": "LK Schwäbisch Hall",
    "state": "Baden-Württemberg",
    "lat": 49.12530666666667,
    "lon": 9.891721333333333
  },
  "8128": {
    "name": "LK Main-Tauber-Kreis",
    "state": "Baden-Württemberg",
    "lat": 49.571266666666666,
    "lon": 9.700058888888888
  },
  "8135": {
    "name": "LK Heidenheim",
    "state": "Baden-Württemberg",
    "lat": 48.64241818181818,
    "lon": 10.198481818181818
  },
  "8136": {
    "name": "LK Ostalbkreis",
    "state": "Baden-Württemberg",
    "lat": 48.87777380952381,
    "lon": 10.033731666666666
  },
  "8211": {
    "name": "SK Baden-Baden",
    "state": "Baden-Württemberg",
    "lat": 48.75,
    "lon": 8.25
  },
  "8212": {
    "name": "SK Karlsruhe",
    "state": "Baden-Württemberg",
    "lat": 49.0047,
    "lon": 8.38583
  },
  "8215": {
    "name": "LK Karlsruhe",
    "state": "Baden-Württemberg",
    "lat": 49.0940125,
    "lon": 8.5635340625
  },
  "8216": {
    "name": "LK Rastatt",
    "state": "Baden-Württemberg",
    "lat": 48.80651739130435,
    "lon": 8.220289130434782
  },
  "8221": {
    "name": "SK Heidelberg",
    "state": "Baden-Württemberg",
    "lat": 49.4167,
    "lon": 8.7
  },
  "8222": {
    "name": "SK Mannheim",
    "state": "Baden-Württemberg",
    "lat": 49.4883,
    "lon": 8.46472
  },
  "8225": {
    "name": "LK Neckar-Odenwald-Kreis",
    "state": "Baden-Württemberg",
    "lat": 49.422140740740744,
    "lon": 9.218622222222223
  },
  "8226": {
    "name": "LK Rhein-Neckar-Kreis",
    "state": "Baden-Württemberg",
    "lat": 49.37362777777778,
    "lon": 8.729530370370371
  },
  "8231": {
    "name": "SK Pforzheim",
    "state": "Baden-Württemberg",
    "lat": 48.8833,
    "lon": 8.7
  },
  "8235": {
    "name": "LK Calw",
    "state": "Baden-Württemberg",
    "lat": 48.688,
    "lon": 8.6626664
  },
  "8236": {
    "name": "LK Enzkreis",
    "state": "Baden-Württemberg",
    "lat": 48.90999285714286,
    "lon": 8.739731785714286
  },
  "8237": {
    "name": "LK Freudenstadt",
    "state": "Baden-Württemberg",
    "lat": 48.46274117647059,
    "lon": 8.524510588235295
  },
  "8311": {
    "name": "SK Freiburg i.Breisgau",
    "state": "Baden-Württemberg",
    "lat": 48,
    "lon": 7.85
  },
  "8315": {
    "name": "LK Breisgau-Hochschwarzwald",
    "state": "Baden-Württemberg",
    "lat": 47.941164,
    "lon": 7.8471664
  },
  "8316": {
    "name": "LK Emmendingen",
    "state": "Baden-Württemberg",
    "lat": 48.14514583333333,
    "lon": 7.837500416666667
  },
  "8317": {
    "name": "LK Ortenaukreis",
    "state": "Baden-Württemberg",
    "lat": 48.41110588235294,
    "lon": 8.006209411764706
  },
  "8325": {
    "name": "LK Rottweil",
    "state": "Baden-Württemberg",
    "lat": 48.238254545454545,
    "lon": 8.516288636363637
  },
  "8326": {
    "name": "LK Schwarzwald-Baar-Kreis",
    "state": "Baden-Württemberg",
    "lat": 48.048325,
    "lon": 8.396666
  },
  "8327": {
    "name": "LK Tuttlingen",
    "state": "Baden-Württemberg",
    "lat": 48.05571714285714,
    "lon": 8.799047142857143
  },
  "8335": {
    "name": "LK Konstanz",
    "state": "Baden-Württemberg",
    "lat": 47.776716,
    "lon": 8.9090004
  },
  "8336": {
    "name": "LK Lörrach",
    "state": "Baden-Württemberg",
    "lat": 47.70359523809524,
    "lon": 7.773072142857143
  },
  "8337": {
    "name": "LK Waldshut",
    "state": "Baden-Württemberg",
    "lat": 47.672925,
    "lon": 8.2204165625
  },
  "8415": {
    "name": "LK Reutlingen",
    "state": "Baden-Württemberg",
    "lat": 48.449310714285716,
    "lon": 9.346151071428572
  },
  "8416": {
    "name": "LK Tübingen",
    "state": "Baden-Württemberg",
    "lat": 48.473333333333336,
    "lon": 9.013334
  },
  "8417": {
    "name": "LK Zollernalbkreis",
    "state": "Baden-Württemberg",
    "lat": 48.247988,
    "lon": 8.8893344
  },
  "8421": {
    "name": "SK Ulm",
    "state": "Baden-Württemberg",
    "lat": 48.42295,
    "lon": 9.99451
  },
  "8425": {
    "name": "LK Alb-Donau-Kreis",
    "state": "Baden-Württemberg",
    "lat": 48.4011323943662,
    "lon": 9.836271267605634
  },
  "8426": {
    "name": "LK Biberach",
    "state": "Baden-Württemberg",
    "lat": 48.09814693877551,
    "lon": 9.78425
  },
  "8435": {
    "name": "LK Bodenseekreis",
    "state": "Baden-Württemberg",
    "lat": 47.7145,
    "lon": 9.378986521739131
  },
  "8436": {
    "name": "LK Ravensburg",
    "state": "Baden-Württemberg",
    "lat": 47.83842307692308,
    "lon": 9.674508461538462
  },
  "8437": {
    "name": "LK Sigmaringen",
    "state": "Baden-Württemberg",
    "lat": 48.049336,
    "lon": 9.2253332
  },
  "9161": {
    "name": "SK Ingolstadt",
    "state": "Bayern",
    "lat": 48.7667,
    "lon": 11.4333
  },
  "9162": {
    "name": "SK München",
    "state": "Bayern",
    "lat": 48.1374,
    "lon": 11.5755
  },
  "9163": {
    "name": "SK Rosenheim",
    "state": "Bayern",
    "lat": 47.85,
    "lon": 12.1333
  },
  "9171": {
    "name": "LK Altötting",
    "state": "Bayern",
    "lat": 48.203470833333334,
    "lon": 12.7069375
  },
  "9172": {
    "name": "LK Berchtesgadener Land",
    "state": "Bayern",
    "lat": 47.749446666666664,
    "lon": 12.921666666666667
  },
  "9173": {
    "name": "LK Bad Tölz-Wolfratshausen",
    "state": "Bayern",
    "lat": 47.78255238095238,
    "lon": 11.487309523809524
  },
  "9174": {
    "name": "LK Dachau",
    "state": "Bayern",
    "lat": 48.326470588235296,
    "lon": 11.3755
  },
  "9175": {
    "name": "LK Ebersberg",
    "state": "Bayern",
    "lat": 48.073728571428575,
    "lon": 11.906638095238096
  },
  "9176": {
    "name": "LK Eichstätt",
    "state": "Bayern",
    "lat": 48.91666,
    "lon": 11.36666
  },
  "9177": {
    "name": "LK Erding",
    "state": "Bayern",
    "lat": 48.29808076923077,
    "lon": 11.985734615384615
  },
  "9178": {
    "name": "LK Freising",
    "state": "Bayern",
    "lat": 48.454166666666666,
    "lon": 11.747229166666667
  },
  "9179": {
    "name": "LK Fürstenfeldbruck",
    "state": "Bayern",
    "lat": 48.18116086956522,
    "lon": 11.203630434782609
  },
  "9180": {
    "name": "LK Garmisch-Partenkirchen",
    "state": "Bayern",
    "lat": 47.606818181818184,
    "lon": 11.14999090909091
  },
  "9181": {
    "name": "LK Landsberg a.Lech",
    "state": "Bayern",
    "lat": 48.03655806451613,
    "lon": 10.946235483870968
  },
  "9182": {
    "name": "LK Miesbach",
    "state": "Bayern",
    "lat": 47.77549411764706,
    "lon": 11.796082352941177
  },
  "9183": {
    "name": "LK Mühldorf a.Inn",
    "state": "Bayern",
    "lat": 48.24086774193548,
    "lon": 12.382251612903225
  },
  "9184": {
    "name": "LK München",
    "state": "Bayern",
    "lat": 48.0925275862069,
    "lon": 11.625172413793104
  },
  "9185": {
    "name": "LK Neuburg-Schrobenhausen",
    "state": "Bayern",
    "lat": 48.65369444444445,
    "lon": 11.225011111111112
  },
  "9186": {
    "name": "LK Pfaffenhofen a.d.Ilm",
    "state": "Bayern",
    "lat": 48.60463333333333,
    "lon": 11.518533333333334
  },
  "9187": {
    "name": "LK Rosenheim",
    "state": "Bayern",
    "lat": 47.894563043478264,
    "lon": 12.195289130434782
  },
  "9188": {
    "name": "LK Starnberg",
    "state": "Bayern",
    "lat": 48.02381428571429,
    "lon": 11.272614285714285
  },
  "9189": {
    "name": "LK Traunstein",
    "state": "Bayern",
    "lat": 47.90667142857143,
    "lon": 12.585242857142857
  },
  "9190": {
    "name": "LK Weilheim-Schongau",
    "state": "Bayern",
    "lat": 47.790654545454544,
    "lon": 11.063124242424243
  },
  "9261": {
    "name": "SK Landshut",
    "state": "Bayern",
    "lat": 48.5361,
    "lon": 12.1518
  },
  "9262": {
    "name": "SK Passau",
    "state": "Bayern",
    "lat": 48.5833,
    "lon": 13.4833
  },
  "9263": {
    "name": "SK Straubing",
    "state": "Bayern",
    "lat": 48.8833,
    "lon": 12.5667
  },
  "9271": {
    "name": "LK Deggendorf",
    "state": "Bayern",
    "lat": 48.78141153846154,
    "lon": 13.000642307692308
  },
  "9272": {
    "name": "LK Freyung-Grafenau",
    "state": "Bayern",
    "lat": 48.81666,
    "lon": 13.481332
  },
  "9273": {
    "name": "LK Kelheim",
    "state": "Bayern",
    "lat": 48.80902916666667,
    "lon": 11.881258333333333
  },
  "9274": {
    "name": "LK Landshut",
    "state": "Bayern",
    "lat": 48.54571714285714,
    "lon": 12.208102857142856
  },
  "9275": {
    "name": "LK Passau",
    "state": "Bayern",
    "lat": 48.56645263157895,
    "lon": 13.36272105263158
  },
  "9276": {
    "name": "LK Regen",
    "state": "Bayern",
    "lat": 49.016504166666664,
    "lon": 13.066020833333333
  },
  "9277": {
    "name": "LK Rottal-Inn",
    "state": "Bayern",
    "lat": 48.403225806451616,
    "lon": 12.877422580645161
  },
  "9278": {
    "name": "LK Straubing-Bogen",
    "state": "Bayern",
    "lat": 48.92702432432432,
    "lon": 12.626581081081081
  },
  "9279": {
    "name": "LK Dingolfing-Landau",
    "state": "Bayern",
    "lat": 48.63666666666666,
    "lon": 12.587766666666667
  },
  "9361": {
    "name": "SK Amberg",
    "state": "Bayern",
    "lat": 49.4414,
    "lon": 11.8622
  },
  "9362": {
    "name": "SK Regensburg",
    "state": "Bayern",
    "lat": 49.015,
    "lon": 12.0956
  },
  "9363": {
    "name": "SK Weiden i.d.OPf.",
    "state": "Bayern",
    "lat": 49.6775,
    "lon": 12.1567
  },
  "9371": {
    "name": "LK Amberg-Sulzbach",
    "state": "Bayern",
    "lat": 49.48333,
    "lon": 11.81666
  },
  "9372": {
    "name": "LK Cham",
    "state": "Bayern",
    "lat": 49.22859230769231,
    "lon": 12.69391794871795
  },
  "9373": {
    "name": "LK Neumarkt i.d.OPf.",
    "state": "Bayern",
    "lat": 49.215926315789474,
    "lon": 11.532952631578947
  },
  "9374": {
    "name": "LK Neustadt a.d.Waldnaab",
    "state": "Bayern",
    "lat": 49.69515263157895,
    "lon": 12.133944736842105
  },
  "9375": {
    "name": "LK Regensburg",
    "state": "Bayern",
    "lat": 49.01251463414634,
    "lon": 12.141017073170731
  },
  "9376": {
    "name": "LK Schwandorf",
    "state": "Bayern",
    "lat": 49.40551025641026,
    "lon": 12.272474358974359
  },
  "9377": {
    "name": "LK Tirschenreuth",
    "state": "Bayern",
    "lat": 49.90879230769231,
    "lon": 12.140919230769232
  },
  "9461": {
    "name": "SK Bamberg",
    "state": "Bayern",
    "lat": 49.894263,
    "lon": 10.88555
  },
  "9462": {
    "name": "SK Bayreuth",
    "state": "Bayern",
    "lat": 49.9481,
    "lon": 11.5783
  },
  "9463": {
    "name": "SK Coburg",
    "state": "Bayern",
    "lat": 50.2667,
    "lon": 10.9667
  },
  "9464": {
    "name": "SK Hof",
    "state": "Bayern",
    "lat": 50.3167,
    "lon": 11.9167
  },
  "9471": {
    "name": "LK Bamberg",
    "state": "Bayern",
    "lat": 49.894263,
    "lon": 10.88555
  },
  "9472": {
    "name": "LK Bayreuth",
    "state": "Bayern",
    "lat": 49.9027606060606,
    "lon": 11.57719696969697
  },
  "9473": {
    "name": "LK Coburg",
    "state": "Bayern",
    "lat": 50.2509705882353,
    "lon": 10.986276470588235
  },
  "9474": {
    "name": "LK Forchheim",
    "state": "Bayern",
    "lat": 49.69848275862069,
    "lon": 11.156493103448275
  },
  "9475": {
    "name": "LK Hof",
    "state": "Bayern",
    "lat": 50.28703703703704,
    "lon": 11.816662962962964
  },
  "9476": {
    "name": "LK Kronach",
    "state": "Bayern",
    "lat": 50.32315,
    "lon": 11.355566666666666
  },
  "9477": {
    "name": "LK Kulmbach",
    "state": "Bayern",
    "lat": 50.107572727272725,
    "lon": 11.519695454545454
  },
  "9478": {
    "name": "LK Lichtenfels",
    "state": "Bayern",
    "lat": 50.13636363636363,
    "lon": 11.145454545454545
  },
  "9479": {
    "name": "LK Wunsiedel i.Fichtelgebirge",
    "state": "Bayern",
    "lat": 50.08362352941177,
    "lon": 12.058688235294118
  },
  "9561": {
    "name": "SK Ansbach",
    "state": "Bayern",
    "lat": 49.3,
    "lon": 10.5833
  },
  "9562": {
    "name": "SK Erlangen",
    "state": "Bayern",
    "lat": 49.5897,
    "lon": 11.0039
  },
  "9563": {
    "name": "SK Fürth",
    "state": "Bayern",
    "lat": 49.4667,
    "lon": 10.9667
  },
  "9564": {
    "name": "SK Nürnberg",
    "state": "Bayern",
    "lat": 49.4478,
    "lon": 11.0683
  },
  "9565": {
    "name": "SK Schwabach",
    "state": "Bayern",
    "lat": 49.3292,
    "lon": 11.0256
  },
  "9571": {
    "name": "LK Ansbach",
    "state": "Bayern",
    "lat": 49.24022931034483,
    "lon": 10.463505172413793
  },
  "9572": {
    "name": "LK Erlangen-Höchstadt",
    "state": "Bayern",
    "lat": 49.64042,
    "lon": 10.930096
  },
  "9573": {
    "name": "LK Fürth",
    "state": "Bayern",
    "lat": 49.466657142857144,
    "lon": 10.872621428571428
  },
  "9574": {
    "name": "LK Nürnberger Land",
    "state": "Bayern",
    "lat": 49.49235185185185,
    "lon": 11.374481481481482
  },
  "9575": {
    "name": "LK Neustadt a.d.Aisch-Bad Windsheim",
    "state": "Bayern",
    "lat": 49.57017894736842,
    "lon": 10.471486842105262
  },
  "9576": {
    "name": "LK Roth",
    "state": "Bayern",
    "lat": 49.2234625,
    "lon": 11.0885125
  },
  "9577": {
    "name": "LK Weißenburg-Gunzenhausen",
    "state": "Bayern",
    "lat": 49.04320740740741,
    "lon": 10.89877037037037
  },
  "9661": {
    "name": "SK Aschaffenburg",
    "state": "Bayern",
    "lat": 49.9739,
    "lon": 9.14917
  },
  "9662": {
    "name": "SK Schweinfurt",
    "state": "Bayern",
    "lat": 50.05,
    "lon": 10.2333
  },
  "9663": {
    "name": "SK Würzburg",
    "state": "Bayern",
    "lat": 49.7878,
    "lon": 9.93611
  },
  "9671": {
    "name": "LK Aschaffenburg",
    "state": "Bayern",
    "lat": 50.015696875,
    "lon": 9.2188890625
  },
  "9672": {
    "name": "LK Bad Kissingen",
    "state": "Bayern",
    "lat": 50.21943076923077,
    "lon": 9.987495384615384
  },
  "9673": {
    "name": "LK Rhön-Grabfeld",
    "state": "Bayern",
    "lat": 50.36501621621622,
    "lon": 10.276618918918919
  },
  "9674": {
    "name": "LK Haßberge",
    "state": "Bayern",
    "lat": 50.05915769230769,
    "lon": 10.610688461538462
  },
  "9675": {
    "name": "LK Kitzingen",
    "state": "Bayern",
    "lat": 49.74172258064516,
    "lon": 10.23075806451613
  },
  "9676": {
    "name": "LK Miltenberg",
    "state": "Bayern",
    "lat": 49.77835,
    "lon": 9.238316875
  },
  "9677": {
    "name": "LK Main-Spessart",
    "state": "Bayern",
    "lat": 49.9690725,
    "lon": 9.64037675
  },
  "9678": {
    "name": "LK Schweinfurt",
    "state": "Bayern",
    "lat": 49.98965517241379,
    "lon": 10.251724137931035
  },
  "9679": {
    "name": "LK Würzburg",
    "state": "Bayern",
    "lat": 49.74698269230769,
    "lon": 9.926161346153846
  },
  "9761": {
    "name": "SK Augsburg",
    "state": "Bayern",
    "lat": 48.3667,
    "lon": 10.8833
  },
  "9762": {
    "name": "SK Kaufbeuren",
    "state": "Bayern",
    "lat": 47.8833,
    "lon": 10.6167
  },
  "9763": {
    "name": "SK Kempten",
    "state": "Bayern",
    "lat": 47.7167,
    "lon": 10.3167
  },
  "9764": {
    "name": "SK Memmingen",
    "state": "Bayern",
    "lat": 47.9833,
    "lon": 10.1667
  },
  "9771": {
    "name": "LK Aichach-Friedberg",
    "state": "Bayern",
    "lat": 48.411116666666665,
    "lon": 11.045129166666667
  },
  "9772": {
    "name": "LK Augsburg",
    "state": "Bayern",
    "lat": 48.36558478260869,
    "lon": 10.754708695652173
  },
  "9773": {
    "name": "LK Dillingen a.d.Donau",
    "state": "Bayern",
    "lat": 48.59198148148148,
    "lon": 10.498144444444444
  },
  "9774": {
    "name": "LK Günzburg",
    "state": "Bayern",
    "lat": 48.35187352941176,
    "lon": 10.38104705882353
  },
  "9775": {
    "name": "LK Neu-Ulm",
    "state": "Bayern",
    "lat": 48.27549411764706,
    "lon": 10.130394117647059
  },
  "9776": {
    "name": "LK Lindau",
    "state": "Bayern",
    "lat": 47.60087894736842,
    "lon": 9.849123684210527
  },
  "9777": {
    "name": "LK Ostallgäu",
    "state": "Bayern",
    "lat": 47.80258888888889,
    "lon": 10.625926666666667
  },
  "9778": {
    "name": "LK Unterallgäu",
    "state": "Bayern",
    "lat": 48.033975,
    "lon": 10.35
  },
  "9779": {
    "name": "LK Donau-Ries",
    "state": "Bayern",
    "lat": 48.814870454545456,
    "lon": 10.69735
  },
  "9780": {
    "name": "LK Oberallgäu",
    "state": "Bayern",
    "lat": 47.61309642857143,
    "lon": 10.270825
  },
  "10041": {
    "name": "LK Stadtverband Saarbrücken",
    "state": "Saarland",
    "lat": 49.27,
    "lon": 6.969999
  },
  "10042": {
    "name": "LK Merzig-Wadern",
    "state": "Saarland",
    "lat": 49.4881,
    "lon": 6.680951428571428
  },
  "10043": {
    "name": "LK Neunkirchen",
    "state": "Saarland",
    "lat": 49.361914285714285,
    "lon": 7.097618571428572
  },
  "10044": {
    "name": "LK Saarlouis",
    "state": "Saarland",
    "lat": 49.33333076923077,
    "lon": 6.779486923076923
  },
  "10045": {
    "name": "LK Saar-Pfalz-Kreis",
    "state": "Saarland",
    "lat": 49.25474285714286,
    "lon": 7.22381
  },
  "10046": {
    "name": "LK Sankt Wendel",
    "state": "Saarland",
    "lat": 49.522925,
    "lon": 7.10416625
  },
  "11000": {
    "name": "Berlin",
    "state": "Berlin",
    "note": "represents all of Berlin, includes 110XX",
    "lat": 52.52464,
    "lon": 13.40514
  },
  "11001": {
    "name": "SK Berlin Mitte",
    "state": "Berlin",
    "lat": 52.5222469,
    "lon": 13.3800969
  },
  "11002": {
    "name": "SK Berlin Friedrichshain-Kreuzberg",
    "state": "Berlin",
    "lat": 52.496588,
    "lon": 13.3933284
  },
  "11003": {
    "name": "SK Berlin Pankow",
    "state": "Berlin",
    "lat": 52.5976648,
    "lon": 13.3653064
  },
  "11004": {
    "name": "SK Berlin Charlottenburg-Wilmersdorf",
    "state": "Berlin",
    "lat": 52.5079723,
    "lon": 13.2288927
  },
  "11005": {
    "name": "SK Berlin Spandau",
    "state": "Berlin",
    "lat": 52.5191748,
    "lon": 13.1256897
  },
  "11006": {
    "name": "SK Berlin Steglitz-Zehlendorf",
    "state": "Berlin",
    "lat": 52.4295144,
    "lon": 13.1599922
  },
  "11007": {
    "name": "SK Berlin Tempelhof-Schöneberg",
    "state": "Berlin",
    "lat": 52.4405871,
    "lon": 13.3037244
  },
  "11008": {
    "name": "SK Berlin Neukölln",
    "state": "Berlin",
    "lat": 52.4458913,
    "lon": 13.3917518
  },
  "11009": {
    "name": "SK Berlin Treptow-Köpenick",
    "state": "Berlin",
    "lat": 52.4178733,
    "lon": 13.5303405
  },
  "11010": {
    "name": "SK Berlin Marzahn-Hellersdorf",
    "state": "Berlin",
    "lat": 52.5224578,
    "lon": 13.5176209
  },
  "11011": {
    "name": "SK Berlin Lichtenberg",
    "state": "Berlin",
    "lat": 52.532205,
    "lon": 13.441929
  },
  "11012": {
    "name": "SK Berlin Reinickendorf",
    "state": "Berlin",
    "lat": 52.6047681,
    "lon": 13.2251514
  },
  "12051": {
    "name": "SK Brandenburg a.d.Havel",
    "state": "Brandenburg",
    "lat": 52.4256508313817,
    "lon": 12.6050945978801
  },
  "12052": {
    "name": "SK Cottbus",
    "state": "Brandenburg",
    "lat": 51.75508,
    "lon": 14.33308
  },
  "12053": {
    "name": "SK Frankfurt (Oder)",
    "state": "Brandenburg",
    "lat": 52.34399,
    "lon": 14.54015
  },
  "12054": {
    "name": "SK Potsdam",
    "state": "Brandenburg",
    "lat": 52.44585,
    "lon": 13.0146
  },
  "12060": {
    "name": "LK Barnim",
    "state": "Brandenburg",
    "lat": 52.772528301886794,
    "lon": 13.691518867924529
  },
  "12061": {
    "name": "LK Dahme-Spreewald",
    "state": "Brandenburg",
    "lat": 52.074150819672134,
    "lon": 13.811661475409837
  },
  "12062": {
    "name": "LK Elbe-Elster",
    "state": "Brandenburg",
    "lat": 51.62331235955056,
    "lon": 13.547191011235956
  },
  "12063": {
    "name": "LK Havelland",
    "state": "Brandenburg",
    "lat": 52.60741142857143,
    "lon": 12.667317142857144
  },
  "12064": {
    "name": "LK Märkisch-Oderland",
    "state": "Brandenburg",
    "lat": 52.6143,
    "lon": 14.182938125
  },
  "12065": {
    "name": "LK Oberhavel",
    "state": "Brandenburg",
    "lat": 52.89883392857143,
    "lon": 13.2651375
  },
  "12066": {
    "name": "LK Oberspreewald-Lausitz",
    "state": "Brandenburg",
    "lat": 51.5701337218445,
    "lon": 13.970516595459
  },
  "12067": {
    "name": "LK Oder-Spree",
    "state": "Brandenburg",
    "lat": 52.22887085714286,
    "lon": 14.23284
  },
  "12068": {
    "name": "LK Ostprignitz-Ruppin",
    "state": "Brandenburg",
    "lat": 53.00793368421053,
    "lon": 12.643935789473684
  },
  "12069": {
    "name": "LK Potsdam-Mittelmark",
    "state": "Brandenburg",
    "lat": 52.293261904761906,
    "lon": 12.782342857142858
  },
  "12070": {
    "name": "LK Prignitz",
    "state": "Brandenburg",
    "lat": 53.0847325,
    "lon": 12.02056
  },
  "12071": {
    "name": "LK Spree-Neiße",
    "state": "Brandenburg",
    "lat": 51.7542101278995,
    "lon": 14.558681641032
  },
  "12072": {
    "name": "LK Teltow-Fläming",
    "state": "Brandenburg",
    "lat": 52.1429,
    "lon": 13.35259
  },
  "12073": {
    "name": "LK Uckermark",
    "state": "Brandenburg",
    "lat": 53.156595238095235,
    "lon": 13.934788095238096
  },
  "13003": {
    "name": "SK Rostock",
    "state": "Mecklenburg-Vorpommern",
    "lat": 54.08397,
    "lon": 12.09939
  },
  "13004": {
    "name": "SK Schwerin",
    "state": "Mecklenburg-Vorpommern",
    "lat": 53.6325620393709,
    "lon": 11.4141250793457
  },
  "13071": {
    "name": "LK Mecklenburgische Seenplatte",
    "state": "Mecklenburg-Vorpommern",
    "lat": 53.56656,
    "lon": 13.26949
  },
  "13072": {
    "name": "LK Rostock",
    "state": "Mecklenburg-Vorpommern",
    "lat": 53.8047,
    "lon": 12.1868899999999
  },
  "13073": {
    "name": "LK Vorpommern-Rügen",
    "state": "Mecklenburg-Vorpommern",
    "lat": 54.353595,
    "lon": 13.364639
  },
  "13074": {
    "name": "LK Nordwestmecklenburg",
    "state": "Mecklenburg-Vorpommern",
    "lat": 53.8884,
    "lon": 11.4622
  },
  "13075": {
    "name": "LK Vorpommern-Greifswald",
    "state": "Mecklenburg-Vorpommern",
    "lat": 54.08883,
    "lon": 13.39473
  },
  "13076": {
    "name": "LK Ludwigslust-Parchim",
    "state": "Mecklenburg-Vorpommern",
    "lat": 53.5364177322996,
    "lon": 11.8458329682414
  },
  "14511": {
    "name": "SK Chemnitz",
    "state": "Sachsen",
    "lat": 50.8333,
    "lon": 12.9167
  },
  "14521": {
    "name": "LK Erzgebirgskreis",
    "state": "Sachsen",
    "lat": 50.57353529411765,
    "lon": 12.983329411764705
  },
  "14522": {
    "name": "LK Mittelsachsen",
    "state": "Sachsen",
    "lat": 50.85685357142857,
    "lon": 13.315885714285715
  },
  "14523": {
    "name": "LK Vogtlandkreis",
    "state": "Sachsen",
    "lat": 50.47217608695652,
    "lon": 12.269536956521739
  },
  "14524": {
    "name": "LK Zwickau",
    "state": "Sachsen",
    "lat": 50.7333,
    "lon": 12.5
  },
  "14612": {
    "name": "SK Dresden",
    "state": "Sachsen",
    "lat": 51.04925769230769,
    "lon": 13.698703846153846
  },
  "14625": {
    "name": "LK Bautzen",
    "state": "Sachsen",
    "lat": 51.155648387096775,
    "lon": 14.373893548387096
  },
  "14626": {
    "name": "LK Görlitz",
    "state": "Sachsen",
    "lat": 51.15261,
    "lon": 14.96988
  },
  "14627": {
    "name": "LK Meißen",
    "state": "Sachsen",
    "lat": 51.13735882352941,
    "lon": 13.4771
  },
  "14628": {
    "name": "LK Sächsische Schweiz-Osterzgebirge",
    "state": "Sachsen",
    "lat": 50.94594615384615,
    "lon": 14.050034615384616
  },
  "14713": {
    "name": "SK Leipzig",
    "state": "Sachsen",
    "lat": 51.3493,
    "lon": 12.39392
  },
  "14729": {
    "name": "LK Leipzig",
    "state": "Sachsen",
    "lat": 51.17,
    "lon": 12.65
  },
  "14730": {
    "name": "LK Nordsachsen",
    "state": "Sachsen",
    "lat": 51.46713,
    "lon": 12.76647
  },
  "15001": {
    "name": "SK Dessau-Roßlau",
    "state": "Sachsen-Anhalt",
    "lat": 51.84247,
    "lon": 12.2305200000001
  },
  "15002": {
    "name": "SK Halle",
    "state": "Sachsen-Anhalt",
    "lat": 51.48034,
    "lon": 11.96887
  },
  "15003": {
    "name": "SK Magdeburg",
    "state": "Sachsen-Anhalt",
    "lat": 52.13196,
    "lon": 11.62658
  },
  "15081": {
    "name": "LK Altmarkkreis Salzwedel",
    "state": "Sachsen-Anhalt",
    "lat": 52.6911173553719,
    "lon": 11.230373553719009
  },
  "15082": {
    "name": "LK Anhalt-Bitterfeld",
    "state": "Sachsen-Anhalt",
    "lat": 51.6229,
    "lon": 12.2677
  },
  "15083": {
    "name": "LK Börde",
    "state": "Sachsen-Anhalt",
    "lat": 52.321737,
    "lon": 11.539796
  },
  "15084": {
    "name": "LK Burgenlandkreis",
    "state": "Sachsen-Anhalt",
    "lat": 51.12593673469388,
    "lon": 11.85765306122449
  },
  "15085": {
    "name": "LK Harz",
    "state": "Sachsen-Anhalt",
    "lat": 51.8122289,
    "lon": 10.704449
  },
  "15086": {
    "name": "LK Jerichower Land",
    "state": "Sachsen-Anhalt",
    "lat": 52.259828358208956,
    "lon": 11.989058208955225
  },
  "15087": {
    "name": "LK Mansfeld-Südharz",
    "state": "Sachsen-Anhalt",
    "lat": 51.57785277777778,
    "lon": 11.514209722222223
  },
  "15088": {
    "name": "LK Saalekreis",
    "state": "Sachsen-Anhalt",
    "lat": 51.529238596491226,
    "lon": 11.9383
  },
  "15089": {
    "name": "LK Salzlandkreis",
    "state": "Sachsen-Anhalt",
    "lat": 51.94672857142857,
    "lon": 11.773214285714285
  },
  "15090": {
    "name": "LK Stendal",
    "state": "Sachsen-Anhalt",
    "lat": 52.67807538461538,
    "lon": 11.810256923076922
  },
  "15091": {
    "name": "LK Wittenberg",
    "state": "Sachsen-Anhalt",
    "lat": 51.8743654682804,
    "lon": 12.6277303756714
  },
  "16051": {
    "name": "SK Erfurt",
    "state": "Thüringen",
    "lat": 50.9833,
    "lon": 11.0333
  },
  "16052": {
    "name": "SK Gera",
    "state": "Thüringen",
    "lat": 50.8667,
    "lon": 12.0833
  },
  "16053": {
    "name": "SK Jena",
    "state": "Thüringen",
    "lat": 50.9333,
    "lon": 11.5833
  },
  "16054": {
    "name": "SK Suhl",
    "state": "Thüringen",
    "lat": 50.6,
    "lon": 10.7
  },
  "16055": {
    "name": "SK Weimar",
    "state": "Thüringen",
    "lat": 50.9833,
    "lon": 11.3167
  },
  "16056": {
    "name": "SK Eisenach",
    "state": "Thüringen",
    "lat": 50.9833,
    "lon": 10.3167
  },
  "16061": {
    "name": "LK Eichsfeld",
    "state": "Thüringen",
    "lat": 51.37517741935484,
    "lon": 10.220253010752689
  },
  "16062": {
    "name": "LK Nordhausen",
    "state": "Thüringen",
    "lat": 51.4993862577701,
    "lon": 10.7910137517003
  },
  "16063": {
    "name": "LK Wartburgkreis",
    "state": "Thüringen",
    "lat": 50.8567,
    "lon": 10.184005606060605
  },
  "16064": {
    "name": "LK Unstrut-Hainich-Kreis",
    "state": "Thüringen",
    "lat": 51.1825085106383,
    "lon": 10.585465957446809
  },
  "16065": {
    "name": "LK Kyffhäuserkreis",
    "state": "Thüringen",
    "lat": 51.30833653846154,
    "lon": 11.065388461538461
  },
  "16066": {
    "name": "LK Schmalkalden-Meiningen",
    "state": "Thüringen",
    "lat": 50.60612597402597,
    "lon": 10.396124675324675
  },
  "16067": {
    "name": "LK Gotha",
    "state": "Thüringen",
    "lat": 50.93818787878788,
    "lon": 10.703025757575757
  },
  "16068": {
    "name": "LK Sömmerda",
    "state": "Thüringen",
    "lat": 51.144087272727276,
    "lon": 11.1453
  },
  "16069": {
    "name": "LK Hildburghausen",
    "state": "Thüringen",
    "lat": 50.44202380952381,
    "lon": 10.684542857142857
  },
  "16070": {
    "name": "LK Ilm-Kreis",
    "state": "Thüringen",
    "lat": 50.72944318181818,
    "lon": 10.959106818181818
  },
  "16071": {
    "name": "LK Weimarer Land",
    "state": "Thüringen",
    "lat": 51.002467088607595,
    "lon": 11.375778481012658
  },
  "16072": {
    "name": "LK Sonneberg",
    "state": "Thüringen",
    "lat": 50.42735625,
    "lon": 11.12110625
  },
  "16073": {
    "name": "LK Saalfeld-Rudolstadt",
    "state": "Thüringen",
    "lat": 50.61869166666666,
    "lon": 11.28814375
  },
  "16074": {
    "name": "LK Saale-Holzland-Kreis",
    "state": "Thüringen",
    "lat": 50.90425416666667,
    "lon": 11.731919791666666
  },
  "16075": {
    "name": "LK Saale-Orla-Kreis",
    "state": "Thüringen",
    "lat": 50.62368857142857,
    "lon": 11.720237142857142
  },
  "16076": {
    "name": "LK Greiz",
    "state": "Thüringen",
    "lat": 50.778574603174604,
    "lon": 12.076195238095238
  },
  "16077": {
    "name": "LK Altenburger Land",
    "state": "Thüringen",
    "lat": 50.9579243902439,
    "lon": 12.380180487804878
  }
}
